


$GPGSV,3,2,12,26,38,174,46,51,38,213,47,03,34,310,39,25,32,051,35*70

$GPGSV,3,3,12,01,15,265,42,10,13,159,43,16,12,188,46,23,06,295,38*74

$GPRMC,203706.000,A,3947.9610,N,08407.6342,W,32.72,50.6,160117,,*29

$GPVTG,50.6,T,,M,32.72,N,60.6,K*67

$GPBT,INFO1,INFO2,INFO3,INFO4,1,0,0,1,0,32,196608,3746208,221850,221850*08

$GPGGA,203707.000,3947.9667,N,08407.6250,W,2,11,0.9,208.2,M,,,0000,0000*13

$GPGSA,A,3,31,14,22,32,26,03,25,01,10,16,23,,1.6,0.9,1.3*3E

$GPGSV,3,1,12,31,77,359,44,14,67,060,40,22,46,294,42,32,44,095,42*73

$GPVTG,50.6,T,,M,32.09,N,59.4,K*63

$GPBT,INFO1,INFO2,INFO3,INFO4,1,0,0,1,0,32,196608,3746224,221851,221851*06

$GPGGA,203708.000,3947.9724,N,08407.6159,W,2,11,0.9,208.2,M,,,0000,0000*10

$GPGSA,A,3,31,14,22,32,26,03,25,01,10,16,23,,1.6,0.9,1.3*3E

$GPBT,INFO1,INFO2,INFO3,INFO4,1,0,0,1,0,32,196608,3746288,221855,221855*00


$GPGSV,3,3,12,01,15,265,34,10,13,159,36,16,12,188,40,23,06,295,26*7E

$GPRMC,203712.000,A,3947.9946,N,08407.5797,W,32.41,52.0,160117,,*2B

$GPVTG,52.0,T,,M,32.41,N,60.0,K*65

$GPGGA,203713.000,3948.0002,N,08407.5703,W,2,11,0.9,208.1,M,,,0000,0000*16

$GPGSA,A,3,31,14,22,32,26,03,25,01,10,16,23,,1.6,0.9,1.3*3E

$GPGSV,3,1,12,31,77,359,43,14,67,061,39,22,46,294,43,32,44,095,41*79


$GPGSV,3,3,12,01,15,265,36,10,13,159,31,16,12,188,38,23,06,295,29*7B

$GPRMC,203714.000,A,3948.0058,N,08407.5609,W,32.87,51.6,160117,,*24

$GPVTG,51.6,T,,M,32.87,N,60.9,K*63

$GPBT,INFO1,INFO2,INFO3,INFO4,1,0,0,1,0,32,196608,3746336,221858,221858*04

$GPGGA,203715.000,3948.0117,N,08407.5513,W,2,10,1.0,208.1,M,,,0000,0000*1F

$GPGSA,A,3,31,14,22,32,26,03,25,01,10,16,,,1.9,1.0,1.6*3D


$GPBT,INFO1,INFO2,INFO3,INFO4,1,0,0,1,0,32,196608,3746352,221859,221859*06
$GPGSV,3,1,12,31,77,359,43,14,67,061,39,22,46,294,43,32,44,095,43*7B

$GPGSV,3,2,12,26,38,174,46,51,38,213,46,03,34,310,38,25,32,051,34*71



$GPBT,INFO1,INFO2,INFO3,INFO4,1,0,0,1,0,32,196608,3746368,221860,221860*0F

$GPGGA,203717.000,3948.0229,N,08407.5318,W,2,11,0.9,208.2,M,,,0000,0000*14

$GPGSA,A,3,31,14,22,32,26,03,25,01,10,16,23,,1.6,0.9,1.3*3E

$GPGSV,3,1,12,31,77,359,43,14,67,061,39,22,46,294,44,32,44,095,43*7C

$GPGSV,3,2,12,26,38,174,46,51,38,213,47,03,34,310,39,25,32,051,34*71

$GPGSV,3,3,12,01,15,265,40,10,13,159,44,16,12,188,44,23,06,295,29*73


$GPBT,INFO1,INFO2,INFO3,INFO4,1,0,0,1,0,32,196608,3746384,221861,221861*0D

$GPGSA,A,3,31,14,22,32,26,03,25,01,10,16,23,,1.6,0.9,1.3*3E


$GPRMC,203719.000,A,3948.0343,N,08407.5126,W,33.34,52.2,160117,,*24
$GPBT,INFO1,INFO2,INFO3,INFO4,1,0,0,1,0,32,196608,3746416,221863,221863*01

$GPGGA,203720.000,3948.0401,N,08407.5030,W,2,11,0.9,208.5,M,,,0000,0000*12

$GPGSA,A,3,31,14,22,32,26,03,25,01,10,16,23,,1.6,0.9,1.3*3E

$GPGSV,3,1,12,31,77,359,43,14,67,061,39,22,46,294,44,32,44,095,43*7C

$GPGSV,3,2,12,26,39,174,47,51,38,213,47,03,34,310,39,25,32,051,34*71

$GPGSV,3,3,12,01,15,265,41,10,13,159,43,16,12,188,43,23,06,295,38*72

$GPRMC,203720.000,A,3948.0401,N,08407.5030,W,34.01,52.1,160117,,*2B

$GPVTG,52.1,T,,M,34.01,N,63.0,K*65

$GPBT,INFO1,INFO2,INFO3,INFO4,1,0,0,1,0,32,196608,3746432,221864,221864*07

$GPGGA,203721.000,3948.0459,N,08407.4932,W,2,11,0.9,208.6,M,,,0000,0000*17

$GPGSA,A,3,31,14,22,32,26,03,25,01,10,16,23,,1.6,0.9,1.3*3E

$GPGSV,3,1,12,31,77,359,43,14,67,061,39,22,46,294,44,32,44,095,43*7C

$GPGSV,3,2,12,26,39,174,47,51,38,213,47,03,34,310,39,25,32,051,34*71

$GPGSV,3,3,12,01,15,265,41,10,13,159,42,16,12,188,43,23,06,295,36*7D

$GPRMC,203721.000,A,3948.0459,N,08407.4932,W,34.87,52.7,160117,,*25

$GPVTG,52.7,T,,M,34.87,N,64.6,K*6C

$GPBT,INFO1,INFO2,INFO3,INFO4,1,0,0,1,0,32,196608,3746448,221865,221865*0A

$GPGGA,203722.000,3948.0520,N,08407.4832,W,2,11,0.9,208.7,M,,,0000,0000*1B

$GPGSA,A,3,31,14,22,32,26,03,25,01,10,16,23,,1.6,0.9,1.3*3E

$GPGSV,3,1,12,31,77,359,43,14,67,061,39,22,46,294,44,32,44,095,42*7D

$GPGSV,3,2,12,26,39,174,46,51,38,213,47,03,34,310,39,25,32,051,34*70

$GPGSV,3,3,12,01,15,265,41,10,13,159,42,16,12,188,43,23,06,295,34*7F

$GPRMC,203722.000,A,3948.0520,N,08407.4832,W,35.63,52.3,160117,,*27

$GPVTG,52.3,T,,M,35.63,N,66.0,K*67

$GPBT,INFO1,INFO2,INFO3,INFO4,1,0,0,1,0,32,196608,3746464,221866,221866*04

$GPGGA,203723.000,3948.0583,N,08407.4729,W,2,11,0.9,208.8,M,,,0000,0000*19

$GPGSA,A,3,31,14,22,32,26,03,25,01,10,16,23,,1.6,0.9,1.3*3E

$GPGSV,3,1,12,31,77,359,42,14,67,061,38,22,46,294,44,32,44,095,42*7D

$GPGSV,3,2,12,26,39,174,45,51,38,213,45,03,34,310,39,25,32,051,33*76

$GPGSV,3,3,12,01,15,265,41,10,13,159,33,16,12,188,42,23,06,295,35*79

$GPRMC,203723.000,A,3948.0583,N,08407.4729,W,36.52,51.8,160117,,*23

$GPVTG,51.8,T,,M,36.52,N,67.6,K*69

$GPBT,INFO1,INFO2,INFO3,INFO4,1,0,0,1,0,32,196608,3746480,221867,221867*0E

$GPGGA,203724.000,3948.0646,N,08407.4624,W,2,11,0.9,208.9,M,,,0000,0000*19

$GPGSA,A,3,31,14,22,32,26,03,25,01,10,16,23,,1.6,0.9,1.3*3E

$GPGSV,3,1,12,31,77,359,43,14,67,061,38,22,46,294,44,32,44,095,42*7C

$GPGSV,3,2,12,26,39,174,45,51,38,213,44,03,34,310,39,25,32,051,33*77

$GPGSV,3,3,12,01,15,265,42,10,13,159,34,16,12,188,41,23,06,295,36*7D

$GPRMC,203724.000,A,3948.0646,N,08407.4624,W,37.10,51.9,160117,,*24

$GPVTG,51.9,T,,M,37.10,N,68.7,K*61

$GPBT,INFO1,INFO2,INFO3,INFO4,1,0,0,1,0,32,196608,3746496,221868,221868*09

$GPGGA,203725.000,3948.0711,N,08407.4517,W,2,11,0.9,208.9,M,,,0000,0000*18


$GPVTG,51.6,T,,M,37.66,N,69.7,K*6E

$GPBT,INFO1,INFO2,INFO3,INFO4,1,0,0,1,0,32,196608,3746512,221869,221869*04

$GPGGA,203726.000,3948.0777,N,08407.4409,W,2,11,0.9,209.0,M,,,0000,0000*1D


$GPGSV,3,1,12,31,77,000,43,14,67,061,38,22,46,294,44,32,44,095,40*71

$GPGSV,3,2,12,26,39,174,45,51,38,213,44,03,34,310,40,25,32,051,33*79

$GPGSV,3,3,12,01,15,265,41,10,13,159,35,16,12,188,33,23,06,295,34*78

$GPRMC,203727.000,A,3948.0842,N,08407.4301,W,37.58,51.8,160117,,*22

$GPVTG,51.8,T,,M,37.58,N,69.6,K*6C

$GPBT,INFO1,INFO2,INFO3,INFO4,1,0,0,1,0,32,196608,3746544,221871,221871*07

$GPGGA,203728.000,3948.0907,N,08407.4193,W,2,11,0.9,209.0,M,,,0000,0000*1C

$GPGSA,A,3,31,14,22,32,26,03,25,01,10,16,23,,1.6,0.9,1.3*3E


$GPVTG,52.3,T,,M,37.05,N,68.6,K*6D

$GPBT,INFO1,INFO2,INFO3,INFO4,1,0,0,1,0,32,196608,3746560,221872,221872*01

$GPGGA,203729.000,3948.0971,N,08407.4086,W,2,11,0.9,209.1,M,,,0000,0000*18

$GPGSA,A,3,31,14,22,32,26,03,25,01,10,16,23,,1.6,0.9,1.3*3E


$GPGSA,A,3,31,14,22,32,26,03,25,01,10,16,23,,1.6,0.9,1.3*3E

$GPGSV,3,1,12,31,77,000,43,14,67,061,38,22,46,294,44,32,44,095,40*71
$GPGSV,3,1,12,31,77,000,43,14,67,061,38,22,46,294,44,32,44,095,41*70

$GPGSV,3,2,12,26,39,174,45,51,38,213,45,03,34,309,39,25,32,051,33*7E

$GPGSV,3,3,12,01,15,265,35,10,13,159,35,16,12,188,34,23,06,295,28*71

$GPRMC,203731.000,A,3948.1099,N,08407.3872,W,37.61,52.0,160117,,*23

$GPBT,INFO1,INFO2,INFO3,INFO4,1,0,0,1,0,32,196608,3746608,221875,221875*0C

$GPGGA,203732.000,3948.1163,N,08407.3765,W,2,10,1.0,209.1,M,,,0000,0000*1C

$GPGGA,203733.000,3948.1226,N,08407.3659,W,2,10,1.0,209.2,M,,,0000,0000*12

$GPGSA,A,3,31,14,22,32,26,03,25,01,10,16,,,1.9,1.0,1.6*3D

$GPGSV,3,1,12,31,77,000,43,14,67,061,39,22,46,294,44,32,44,095,42*72

$GPVTG,52.2,T,,M,37.00,N,68.5,K*6A
$GPGGA,203735.000,3948.1348,N,08407.3449,W,2,11,0.9,209.3,M,,,0000,0000*16
$GPGGA,203736.000,3948.1409,N,08407.3347,W,2,11,0.9,209.4,M,,,0000,0000*19

$GPGSA,A,3,31,14,22,32,26,03,25,01,10,16,23,,1.6,0.9,1.3*3E

$GPGSV,3,1,12,31,77,000,43,14,67,061,39,22,46,294,44,32,44,095,42*72

$GPGSV,3,2,12,26,39,174,47,51,38,213,47,03,34,309,40,25,32,051,34*77

$GPGSV,3,3,12,01,15,265,41,10,13,159,43,16,12,188,42,23,06,295,28*72

$GPRMC,203736.000,A,3948.1409,N,08407.3347,W,35.74,52.1,160117,,*23

$GPVTG,52.1,T,,M,35.74,N,66.2,K*61

$GPBT,INFO1,INFO2,INFO3,INFO4,1,0,0,1,0,32,196608,3746688,221880,221880*04
$GPGGA,203737.000,3948.1470,N,08407.3246,W,2,10,1.0,209.5,M,,,0000,0000*1E



$GPVTG,52.2,T,,M,35.35,N,65.5,K*63

$GPBT,INFO1,INFO2,INFO3,INFO4,1,0,0,1,0,32,196608,3746720,221882,221882*07

$GPGGA,203739.000,3948.1590,N,08407.3046,W,2,10,1.0,209.8,M,,,0000,0000*10

$GPGSV,3,1,12,31,77,000,43,14,67,061,39,22,46,294,45,32,44,095,43*72

$GPBT,INFO1,INFO2,INFO3,INFO4,1,0,0,1,0,32,196608,3746752,221884,221884*02

$GPGSA,A,3,31,14,22,32,26,03,25,01,10,16,,,1.9,1.0,1.6*3D

$GPGSV,3,1,12,31,77,000,43,14,67,061,39,22,46,294,45,32,44,095,43*72

$GPBT,INFO1,INFO2,INFO3,INFO4,1,0,0,1,0,32,196608,3746784,221886,221886*09

$GPVTG,52.8,T,,M,32.67,N,60.5,K*6C

$GPBT,INFO1,INFO2,INFO3,INFO4,1,0,0,1,0,32,196608,3746800,221887,221887*0A
$GPBT,INFO1,INFO2,INFO3,INFO4,1,0,0,1,0,32,196608,3746816,221888,221888*0D

$GPGGA,203745.000,3948.1918,N,08407.2483,W,2,10,1.0,210.4,M,,,0000,0000*1F

$GPGSA,A,3,31,14,22,32,26,03,25,01,10,16,,,1.9,1.0,1.6*3D




$GPGSV,3,2,12,26,39,174,46,51,38,213,48,03,34,309,40,25,32,051,33*7E

$GPGSV,3,3,12,01,15,265,41,10,13,159,41,16,12,188,43,23,06,295,18*72

$GPRMC,203747.000,A,3948.2012,N,08407.2324,W,26.89,52.3,160117,,*2E

$GPVTG,52.3,T,,M,26.89,N,49.8,K*64

$GPBT,INFO1,INFO2,INFO3,INFO4,1,0,0,1,0,32,196608,3746864,221891,221891*08
$GPGGA,203748.000,3948.2056,N,08407.2249,W,2,10,1.0,210.7,M,,,0000,0000*11







$GPVTG,53.6,T,,M,23.93,N,44.3,K*68

$GPBT,INFO1,INFO2,INFO3,INFO4,1,0,0,1,0,32,196608,3746896,221893,221893*05

$GPGGA,203750.000,3948.2131,N,08407.2116,W,2,10,1.0,210.9,M,,,0000,0000*1F

$GPGSA,A,3,31,14,22,32,26,03,25,01,10,16,,,1.9,1.0,1.6*3D

$GPGSV,3,1,12,31,77,000,43,14,67,061,39,22,47,294,44,32,44,095,43*72

$GPGSV,3,2,12,26,39,174,46,51,38,213,48,03,34,309,39,25,32,051,33*70

$GPGSV,3,3,12,01,15,265,42,10,13,159,41,16,12,188,44,23,06,295,19*77

$GPRMC,203750.000,A,3948.2131,N,08407.2116,W,19.85,53.2,160117,,*2B

$GPVTG,53.2,T,,M,19.85,N,36.8,K*6C

$GPBT,INFO1,INFO2,INFO3,INFO4,1,0,0,1,0,32,196608,3746912,221894,221894*08

$GPGGA,203751.000,3948.2160,N,08407.2065,W,2,10,1.0,211.0,M,,,0000,0000*17

$GPGSA,A,3,31,14,22,32,26,03,25,01,10,16,,,1.9,1.0,1.6*3D

$GPGSV,3,1,12,31,77,000,43,14,67,061,39,22,47,294,44,32,44,095,43*72

$GPGSV,3,2,12,26,39,174,46,51,38,213,48,03,34,309,39,25,32,050,33*71

$GPGSV,3,3,12,01,15,265,41,10,13,159,42,16,12,188,36,23,06,295,19*72

$GPRMC,203751.000,A,3948.2160,N,08407.2065,W,15.52,52.7,160117,,*29

$GPVTG,52.7,T,,M,15.52,N,28.7,K*6E

$GPBT,INFO1,INFO2,INFO3,INFO4,1,0,0,1,0,32,196608,3746928,221895,221895*01

$GPGGA,203752.000,3948.2182,N,08407.2027,W,2,10,1.0,211.1,M,,,0000,0000*1F

$GPGSV,3,2,12,26,39,174,46,51,38,213,48,03,34,309,40,25,32,050,33*7F


$GPVTG,53.1,T,,M,5.25,N,9.7,K*6B



$GPGSV,3,2,12,26,39,174,45,51,38,213,49,03,34,309,41,25,32,050,34*7B


$GPBT,INFO1,INFO2,INFO3,INFO4,1,0,0,1,0,32,196608,3747024,221901,221901*05

$GPBT,INFO1,INFO2,INFO3,INFO4,1,0,0,1,0,32,196608,3747040,221902,221902*07

$GPGGA,203759.000,3948.2259,N,08407.1919,W,2,10,1.0,211.6,M,,,0000,0000*11

$GPGSA,A,3,31,14,22,32,26,03,25,01,10,16,,,1.9,1.0,1.6*3D

$GPGSV,3,1,12,31,77,001,43,14,67,061,41,22,47,294,37,32,44,095,45*7E

$GPGSV,3,2,12,26,39,174,45,51,38,213,44,03,34,309,36,25,32,050,35*77
$GPBT,INFO1,INFO2,INFO3,INFO4,1,0,0,1,0,32,196608,3747088,221905,221905*03

$GPGSV,3,3,12,01,15,265,31,10,13,159,40,16,12,188,36,23,06,295,22*7F

$GPRMC,203802.000,A,3948.2281,N,08407.1997,W,9.29,260.0,160117,,*2E

$GPVTG,260.0,T,,M,9.29,N,17.2,K*62

$GPBT,INFO1,INFO2,INFO3,INFO4,1,0,0,1,0,32,196608,3747104,221906,221906*06

$GPGGA,203803.000,3948.2271,N,08407.2031,W,2,11,0.9,212.2,M,,,0000,0000*15

$GPGSA,A,3,31,14,22,32,26,03,25,01,10,16,23,,1.6,0.9,1.3*3E

$GPGSV,3,1,12,31,77,001,45,14,67,061,45,22,47,294,41,32,44,095,47*7F


$GPVTG,223.8,T,,M,9.13,N,16.9,K*6E

$GPGSV,3,1,12,31,77,001,46,14,67,061,44,22,47,294,43,32,44,095,45*7D

$GPGSV,3,2,12,26,39,174,31,51,38,213,35,03,35,309,46,25,32,050,47*71
$GPRMC,203805.000,A,3948.2231,N,08407.2084,W,10.03,211.3,160117,,*1F
$GPGSV,3,2,12,26,39,174,31,51,38,213,36,03,35,309,46,25,32,050,47*72

$GPGSV,3,3,12,01,15,265,28,10,13,159,35,16,12,188,26,23,06,295,19*7C

$GPRMC,203806.000,A,3948.2202,N,08407.2106,W,12.20,207.9,160117,,*19

$GPGGA,203807.000,3948.2168,N,08407.2136,W,2,08,1.1,213.4,M,,,0000,0000*1A

$GPGSA,A,3,31,14,22,32,26,03,25,10,,,,,2.1,1.1,1.8*3F

$GPGSV,3,1,12,31,77,001,46,14,67,061,44,22,47,294,44,32,44,095,44*7B

$GPGSV,3,2,12,26,39,174,33,51,38,213,35,03,35,309,45,25,32,050,47*70


$GPBT,INFO1,INFO2,INFO3,INFO4,1,0,0,1,0,32,196608,3747184,221911,221911*0E

$GPGGA,203808.000,3948.2133,N,08407.2180,W,2,08,1.1,213.6,M,,,0000,0000*14

$GPVTG,232.5,T,,M,24.51,N,45.4,K*51

$GPBT,INFO1,INFO2,INFO3,INFO4,1,0,0,1,0,32,196608,3747232,221914,221914*00
$GPGSV,3,1,12,31,77,001,46,14,67,061,44,22,47,294,44,32,44,095,45*7A
$GPGSV,3,1,12,31,77,001,46,14,67,062,44,22,47,294,44,32,44,095,46*7A
$GPGSV,3,3,12,01,15,265,34,10,13,159,35,16,12,188,23,23,06,295,17*7A

$GPVTG,232.9,T,,M,29.01,N,53.7,K*51

$GPGSV,3,3,12,01,15,265,,10,13,159,35,16,12,188,,23,06,295,*7A

$GPRMC,203813.000,A,3948.1907,N,08407.2557,W,30.54,232.4,160117,,*18




$GPGSV,3,1,12,31,77,001,45,14,67,062,44,22,47,294,44,32,44,095,46*79

$GPGSV,3,2,12,26,39,174,32,51,38,213,31,03,35,309,42,25,32,050,47*72

$GPGSV,3,3,12,01,15,265,,10,13,159,32,16,12,188,,23,06,295,*7D

$GPRMC,203817.000,A,3948.1689,N,08407.2927,W,31.77,231.6,160117,,*1F

$GPVTG,231.6,T,,M,31.77,N,58.8,K*51

$GPBT,INFO1,INFO2,INFO3,INFO4,1,0,0,1,0,32,196608,3747344,221921,221921*00

$GPGGA,203818.000,3948.1633,N,08407.3018,W,2,08,1.1,215.0,M,,,0000,0000*10

$GPGSA,A,3,31,14,22,32,26,03,25,10,,,,,2.1,1.1,1.8*3F

$GPGSV,3,1,12,31,77,001,45,14,67,062,44,22,47,294,44,32,44,095,46*79

$GPGSV,3,2,12,26,39,174,32,51,38,213,32,03,35,309,42,25,32,050,48*7E

$GPGSV,3,3,12,01,15,265,,10,13,159,34,16,12,188,,23,06,295,*7B

$GPRMC,203818.000,A,3948.1633,N,08407.3018,W,31.51,232.0,160117,,*14

$GPVTG,232.0,T,,M,31.51,N,58.4,K*5C

$GPBT,INFO1,INFO2,INFO3,INFO4,1,0,0,1,0,32,196608,3747360,221922,221922*06

$GPGGA,203819.000,3948.1579,N,08407.3111,W,2,08,1.1,215.0,M,,,0000,0000*14

$GPGSA,A,3,31,14,22,32,26,03,25,10,,,,,2.1,1.1,1.8*3F

$GPGSV,3,1,12,31,77,001,45,14,67,062,44,22,47,294,44,32,44,095,46*79

$GPGSV,3,2,12,26,39,174,32,51,38,213,33,03,35,309,42,25,32,050,48*7F

$GPGSV,3,3,12,01,15,265,,10,13,159,35,16,12,188,,23,06,295,*7A

$GPRMC,203819.000,A,3948.1579,N,08407.3111,W,32.00,233.3,160117,,*15

$GPVTG,233.3,T,,M,32.00,N,59.3,K*5F

$GPBT,INFO1,INFO2,INFO3,INFO4,1,0,0,1,0,32,196608,3747376,221923,221923*01

$GPGGA,203820.000,3948.1522,N,08407.3206,W,2,09,1.0,215.0,M,,,0000,0000*15

$GPGSA,A,3,31,14,22,32,26,03,25,10,01,,,,1.9,1.0,1.6*3A

$GPGSV,3,1,12,31,77,001,45,14,67,062,44,22,47,293,44,32,44,095,46*7E

$GPGSV,3,2,12,26,39,174,32,51,38,213,32,03,35,309,42,25,32,050,48*7E

$GPGSV,3,3,12,01,15,265,29,10,13,159,35,16,12,188,,23,06,295,*71

$GPRMC,203820.000,A,3948.1522,N,08407.3206,W,32.79,232.6,160117,,*1E

$GPVTG,232.6,T,,M,32.79,N,60.7,K*5B

$GPBT,INFO1,INFO2,INFO3,INFO4,1,0,0,1,0,32,196608,3747392,221924,221924*0B

$GPGGA,203821.000,3948.1466,N,08407.3301,W,2,09,1.0,214.9,M,,,0000,0000*1B

$GPGSA,A,3,31,14,22,32,26,03,25,10,01,,,,1.9,1.0,1.6*3A

$GPGSV,3,1,12,31,77,001,45,14,67,062,44,22,47,293,44,32,44,095,46*7E

$GPGSV,3,2,12,26,39,174,33,51,38,213,32,03,35,309,42,25,32,050,48*7F

$GPGSV,3,3,12,01,15,265,28,10,13,159,35,16,12,188,,23,07,295,*71

$GPRMC,203821.000,A,3948.1466,N,08407.3301,W,33.01,231.9,160117,,*1A

$GPVTG,231.9,T,,M,33.01,N,61.1,K*5E

$GPBT,INFO1,INFO2,INFO3,INFO4,1,0,0,1,0,32,196608,3747408,221925,221925*0F

$GPGGA,203822.000,3948.1409,N,08407.3397,W,2,09,1.0,214.9,M,,,0000,0000*1E

$GPGSA,A,3,31,14,22,32,26,03,25,10,01,,,,1.9,1.0,1.6*3A

$GPGSV,3,1,12,31,77,001,45,14,67,062,44,22,47,293,44,32,44,095,46*7E

$GPGSV,3,2,12,26,39,174,33,51,38,213,32,03,35,309,43,25,32,050,48*7E

$GPGSV,3,3,12,01,15,265,31,10,13,159,35,16,12,188,,23,07,295,*79

$GPRMC,203822.000,A,3948.1409,N,08407.3397,W,33.00,231.9,160117,,*1E

$GPVTG,231.9,T,,M,33.00,N,61.1,K*5F

$GPBT,INFO1,INFO2,INFO3,INFO4,1,0,0,1,0,32,196608,3747424,221926,221926*01

$GPGGA,203823.000,3948.1352,N,08407.3492,W,2,09,1.0,214.8,M,,,0000,0000*15

$GPGSA,A,3,31,14,22,32,26,03,25,10,01,,,,1.9,1.0,1.6*3A

$GPGSV,3,1,12,31,77,001,45,14,67,062,44,22,47,293,44,32,44,095,46*7E

$GPGSV,3,2,12,26,39,174,33,51,38,213,33,03,35,309,43,25,32,050,48*7F

$GPGSV,3,3,12,01,15,265,31,10,13,159,35,16,12,188,,23,07,295,*79

$GPRMC,203823.000,A,3948.1352,N,08407.3492,W,33.04,232.5,160117,,*1F
$GPVTG,232.5,T,,M,33.04,N,61.2,K*57

$GPBT,INFO1,INFO2,INFO3,INFO4,1,0,0,1,0,32,196608,3747440,221927,221927*03

$GPGGA,203824.000,3948.1295,N,08407.3589,W,2,09,1.0,214.7,M,,,0000,0000*1C

$GPGSA,A,3,31,14,22,32,26,03,25,10,01,,,,1.9,1.0,1.6*3A

$GPGSV,3,1,12,31,77,001,45,14,67,062,44,22,47,293,44,32,44,095,46*7E

$GPGSV,3,2,12,26,39,174,33,51,38,213,33,03,35,309,43,25,32,050,48*7F

$GPGSV,3,3,12,01,15,265,28,10,13,159,33,16,12,188,,23,07,295,*77

$GPRMC,203824.000,A,3948.1295,N,08407.3589,W,33.80,232.5,160117,,*15

$GPVTG,232.5,T,,M,33.80,N,62.6,K*5C

$GPBT,INFO1,INFO2,INFO3,INFO4,1,0,0,1,0,32,196608,3747456,221928,221928*04

$GPGGA,203825.000,3948.1237,N,08407.3686,W,2,08,1.1,214.6,M,,,0000,0000*18

$GPGSA,A,3,31,14,22,32,26,03,25,10,,,,,2.1,1.1,1.8*3F

$GPGSV,3,1,12,31,77,001,45,14,67,062,44,22,47,293,44,32,44,095,46*7E

$GPGSV,3,2,12,26,39,174,33,51,38,213,32,03,35,309,43,25,32,050,48*7E

$GPGSV,3,3,12,01,15,265,27,10,13,159,32,16,12,188,,23,07,295,*79

$GPRMC,203825.000,A,3948.1237,N,08407.3686,W,34.24,232.1,160117,,*1D

$GPVTG,232.1,T,,M,34.24,N,63.4,K*52

$GPBT,INFO1,INFO2,INFO3,INFO4,1,0,0,1,0,32,196608,3747472,221929,221929*02

$GPGGA,203826.000,3948.1178,N,08407.3787,W,2,09,1.0,214.5,M,,,0000,0000*10

$GPGSA,A,3,31,14,22,32,26,03,25,23,10,,,,1.7,1.0,1.4*36

$GPGSV,3,1,12,31,77,001,45,14,67,062,44,22,47,293,44,32,44,095,46*7E

$GPGSV,3,2,12,26,39,174,33,51,38,213,32,03,35,309,43,25,32,050,48*7E

$GPGSV,3,3,12,01,15,265,24,10,13,159,33,16,12,188,,23,07,295,27*7E

$GPRMC,203826.000,A,3948.1178,N,08407.3787,W,34.28,232.6,160117,,*1D

$GPVTG,232.6,T,,M,34.28,N,63.5,K*58

$GPBT,INFO1,INFO2,INFO3,INFO4,1,0,0,1,0,32,196608,3747488,221930,221930*07

$GPGGA,203827.000,3948.1119,N,08407.3888,W,2,08,1.1,214.5,M,,,0000,0000*16

$GPGSA,A,3,31,14,22,32,26,03,25,10,,,,,2.1,1.1,1.8*3F

$GPGSV,3,1,12,31,77,001,45,14,67,062,44,22,47,293,44,32,44,095,46*7E

$GPGSV,3,2,12,26,39,174,32,51,38,213,32,03,35,309,43,25,32,050,48*7F

$GPGSV,3,3,12,01,15,265,24,10,13,159,33,16,12,188,,23,07,295,20*79

$GPRMC,203827.000,A,3948.1119,N,08407.3888,W,34.72,232.3,160117,,*11

$GPVTG,232.3,T,,M,34.72,N,64.3,K*53

$GPBT,INFO1,INFO2,INFO3,INFO4,1,0,0,1,0,32,196608,3747504,221931,221931*02

$GPGGA,203828.000,3948.1059,N,08407.3988,W,2,08,1.1,214.4,M,,,0000,0000*1C

$GPGSA,A,3,31,14,22,32,26,03,25,10,,,,,2.1,1.1,1.8*3F

$GPGSV,3,1,12,31,77,001,45,14,67,062,44,22,47,293,44,32,44,095,46*7E

$GPGSV,3,2,12,26,39,174,32,51,38,213,32,03,35,309,43,25,32,050,48*7F

$GPGSV,3,3,12,01,15,265,25,10,13,159,32,16,12,188,,23,07,295,*7B

$GPRMC,203828.000,A,3948.1059,N,08407.3988,W,35.19,232.0,160117,,*15

$GPVTG,232.0,T,,M,35.19,N,65.2,K*5C

$GPBT,INFO1,INFO2,INFO3,INFO4,1,0,0,1,0,32,196608,3747520,221932,221932*04

$GPGGA,203829.000,3948.0997,N,08407.4090,W,2,08,1.1,214.3,M,,,0000,0000*17

$GPGSA,A,3,31,14,22,32,26,03,25,10,,,,,2.1,1.1,1.8*3F

$GPGSV,3,1,12,31,77,002,45,14,67,062,44,22,47,293,44,32,44,095,46*7D

$GPGSV,3,2,12,26,39,174,32,51,38,213,33,03,35,309,43,25,32,050,48*7E

$GPGSV,3,3,12,01,15,265,25,10,13,159,30,16,12,188,,23,07,295,*79

$GPRMC,203829.000,A,3948.0997,N,08407.4090,W,35.77,232.3,160117,,*12

$GPVTG,232.3,T,,M,35.77,N,66.2,K*54

$GPBT,INFO1,INFO2,INFO3,INFO4,1,0,0,1,0,32,196608,3747536,221933,221933*03

$GPGGA,203830.000,3948.0936,N,08407.4195,W,2,08,1.1,214.3,M,,,0000,0000*10

$GPGSA,A,3,31,14,22,32,26,03,25,10,,,,,2.1,1.1,1.8*3F

$GPGSV,3,1,12,31,77,002,45,14,67,062,44,22,47,293,43,32,44,095,46*7A

$GPGSV,3,2,12,26,39,174,32,51,38,213,33,03,35,309,42,25,32,050,48*7F

$GPGSV,3,3,12,01,15,265,23,10,13,159,29,16,12,188,,23,07,295,*77

$GPRMC,203830.000,A,3948.0936,N,08407.4195,W,36.27,232.3,160117,,*13

$GPVTG,232.3,T,,M,36.27,N,67.2,K*53

$GPBT,INFO1,INFO2,INFO3,INFO4,1,0,0,1,0,32,196608,3747552,221934,221934*01

$GPGGA,203831.000,3948.0872,N,08407.4302,W,2,07,1.2,214.3,M,,,0000,0000*10

$GPGSA,A,3,31,14,22,32,26,03,25,,,,,,2.7,1.2,2.4*34

$GPGSV,3,1,12,31,77,002,45,14,67,062,44,22,47,293,43,32,44,095,46*7A

$GPGSV,3,2,12,26,39,174,32,51,38,213,33,03,35,309,42,25,32,050,48*7F



$GPBT,INFO1,INFO2,INFO3,INFO4,1,0,0,1,0,32,196608,3747568,221935,221935*08

$GPRMC,203832.000,A,3948.0809,N,08407.4408,W,36.69,232.5,160117,,*11
$GPBT,INFO1,INFO2,INFO3,INFO4,1,0,0,1,0,32,196608,3747584,221936,221936*0A

$GPGGA,203833.000,3948.0747,N,08407.4514,W,2,08,1.2,214.2,M,,,0000,0000*14

$GPGSA,A,3,31,14,22,32,26,03,25,23,,,,,2.0,1.2,1.6*33

$GPGSV,3,1,12,31,77,002,45,14,67,062,44,22,47,293,43,32,44,095,45*79

$GPGSV,3,2,12,26,39,174,31,51,38,213,34,03,35,309,43,25,32,050,48*7A

$GPGSV,3,3,12,01,15,265,24,10,13,159,28,16,12,188,,23,07,295,29*7A

$GPRMC,203833.000,A,3948.0747,N,08407.4514,W,36.33,232.5,160117,,*16

$GPVTG,232.5,T,,M,36.33,N,67.3,K*51

$GPBT,INFO1,INFO2,INFO3,INFO4,1,0,0,1,0,32,196608,3747600,221937,221937*05


$GPGSV,3,2,12,26,39,174,32,51,38,213,32,03,35,309,43,25,32,050,48*7F

$GPGSV,3,3,12,01,15,265,33,10,13,159,27,16,12,188,,23,07,295,27*7D


$GPGSV,3,1,12,31,77,002,45,14,67,062,44,22,47,293,43,32,44,095,42*7E

$GPVTG,232.2,T,,M,35.77,N,66.2,K*55

$GPBT,INFO1,INFO2,INFO3,INFO4,1,0,0,1,0,32,196608,3747648,221940,221940*09


$GPBT,INFO1,INFO2,INFO3,INFO4,1,0,0,1,0,32,196608,3747664,221941,221941*07



$GPGSV,3,3,12,01,15,265,30,10,13,159,33,16,12,188,,23,07,295,19*76

$GPVTG,232.2,T,,M,33.58,N,62.2,K*5A

$GPBT,INFO1,INFO2,INFO3,INFO4,1,0,0,1,0,32,196608,3747728,221945,221945*0E

$GPGGA,203842.000,3948.0203,N,08407.5416,W,2,09,1.0,213.7,M,,,0000,0000*14

$GPGSA,A,3,31,14,22,32,26,03,25,10,01,,,,1.9,1.0,1.6*3A

$GPGSV,3,1,12,31,77,002,45,14,67,062,44,22,47,293,43,32,44,095,45*79

$GPGSV,3,2,12,26,39,174,34,51,38,213,33,03,35,309,43,25,32,050,48*78

$GPGSV,3,3,12,01,15,265,31,10,13,159,33,16,12,188,,23,07,295,19*77

$GPRMC,203842.000,A,3948.0203,N,08407.5416,W,33.29,232.2,160117,,*1E

$GPVTG,232.2,T,,M,33.29,N,61.7,K*5A


$GPVTG,232.1,T,,M,33.23,N,61.5,K*51

$GPBT,INFO1,INFO2,INFO3,INFO4,1,0,0,1,0,32,196608,3747760,221947,221947*02

$GPGGA,203844.000,3948.0090,N,08407.5606,W,2,09,1.0,213.6,M,,,0000,0000*18

$GPGSA,A,3,31,14,22,32,26,03,25,10,01,,,,1.9,1.0,1.6*3A

$GPGSV,3,1,12,31,77,002,45,14,67,063,44,22,47,293,43,32,44,095,45*78

$GPVTG,232.1,T,,M,32.90,N,60.9,K*55

$GPBT,INFO1,INFO2,INFO3,INFO4,1,0,0,1,0,32,196608,3747792,221949,221949*0F

$GPGGA,203846.000,3947.9978,N,08407.5794,W,2,08,1.2,213.4,M,,,0000,0000*18

$GPGSA,A,3,31,14,22,32,26,03,25,23,,,,,2.0,1.2,1.6*33

$GPVTG,232.2,T,,M,33.52,N,62.1,K*53

$GPBT,INFO1,INFO2,INFO3,INFO4,1,0,0,1,0,32,196608,3747840,221952,221952*0F

$GPGGA,203850.000,3947.9750,N,08407.6175,W,2,10,1.0,213.0,M,,,0000,0000*1E

$GPGSA,A,3,31,14,22,32,26,03,25,23,10,01,,,1.6,1.0,1.3*31





$GPGSV,3,3,12,01,15,265,33,16,13,188,,10,13,159,35,23,07,295,27*7F

$GPBT,INFO1,INFO2,INFO3,INFO4,1,0,0,1,0,32,196608,3747920,221957,221957*08
$GPGGA,203854.000,3947.9595,N,08407.6457,W,2,10,1.0,212.5,M,,,0000,0000*10

$GPGSA,A,3,31,14,22,32,26,03,25,23,10,01,,,1.6,1.0,1.3*31

$GPGSV,3,1,12,31,77,002,46,14,67,063,45,22,47,293,42,32,44,095,46*78

$GPGSV,3,2,12,26,39,174,35,51,38,213,34,03,35,309,41,25,32,050,48*7C

$GPGSV,3,3,12,01,15,265,33,16,13,188,,10,13,159,35,23,07,295,28*70
$GPRMC,203854.000,A,3947.9595,N,08407.6457,W,14.33,242.4,160117,,*1E





$GPRMC,203855.000,A,3947.9586,N,08407.6497,W,10.33,259.2,160117,,*19

$GPVTG,259.2,T,,M,10.33,N,19.1,K*54

$GPBT,INFO1,INFO2,INFO3,INFO4,1,0,0,1,0,32,196608,3747952,221959,221959*0D

$GPGGA,203856.000,3947.9590,N,08407.6530,W,2,10,1.0,212.1,M,,,0000,0000*13

$GPGSA,A,3,31,14,22,32,26,03,25,10,16,01,,,1.8,1.0,1.6*3C

$GPGSV,3,1,12,31,77,002,46,14,67,063,44,22,47,293,40,32,44,095,48*75

$GPGSV,3,2,12,26,39,174,42,51,38,213,40,03,35,309,39,25,32,050,46*7E

$GPGSA,A,3,31,14,22,32,26,03,25,10,16,01,,,1.8,1.0,1.6*3C

$GPGSV,3,1,12,31,77,002,45,14,67,063,44,22,47,293,31,32,44,095,48*70

$GPGSV,3,2,12,26,39,174,42,51,38,213,41,03,35,309,37,25,32,050,45*72

$GPGSV,3,3,12,01,15,265,32,16,13,188,40,10,13,159,42,23,07,295,28*75

$GPRMC,203858.000,A,3947.9639,N,08407.6593,W,13.85,319.9,160117,,*16
$GPBT,INFO1,INFO2,INFO3,INFO4,1,0,0,1,0,32,196608,3748032,221964,221964*0D

$GPGGA,203901.000,3947.9744,N,08407.6671,W,2,11,0.8,212.0,M,,,0000,0000*14

$GPGSA,A,3,31,14,22,32,26,03,25,10,16,29,01,,1.5,0.8,1.2*37

$GPGSV,3,1,12,31,77,003,43,14,67,063,43,22,47,293,35,32,44,095,47*7B

$GPBT,INFO1,INFO2,INFO3,INFO4,1,0,0,1,0,32,196608,3748080,221967,221967*04

$GPGGA,203904.000,3947.9795,N,08407.6758,W,2,12,0.8,212.1,M,,,0000,0000*15

$GPGSA,A,3,31,14,22,32,26,03,25,23,10,16,29,01,1.3,0.8,1.0*32

$GPGSV,3,1,12,31,77,003,44,14,67,063,45,22,47,293,37,32,43,096,49*72

$GPVTG,289.4,T,,M,5.56,N,10.3,K*63

$GPBT,INFO1,INFO2,INFO3,INFO4,1,0,0,1,0,32,196608,3748112,221969,221969*0E

$GPVTG,162.9,T,,M,8.91,N,16.5,K*6E

$GPBT,INFO1,INFO2,INFO3,INFO4,1,0,0,1,0,32,196608,3748160,221972,221972*0B


$GPGSA,A,3,31,14,22,32,26,03,25,23,10,01,,,1.6,0.9,1.3*39

$GPGSV,3,1,12,31,77,003,46,14,67,063,37,22,47,293,48,32,43,096,36*75


$GPGSA,A,3,31,14,22,32,26,03,25,23,10,16,29,01,1.3,0.8,1.0*32
$GPVTG,121.8,T,,M,9.25,N,17.1,K*63

$GPBT,INFO1,INFO2,INFO3,INFO4,1,0,0,1,0,32,196608,3748224,221976,221976*08

$GPGGA,203913.000,3947.9632,N,08407.6675,W,2,11,0.9,211.8,M,,,0000,0000*19

$GPGSA,A,3,31,14,22,32,26,03,25,23,10,16,01,,1.6,0.9,1.3*3E

$GPGSV,3,1,12,31,77,003,45,14,67,063,37,22,47,293,47,32,43,096,32*7D

$GPGSV,3,2,12,26,39,174,39,51,38,213,46,03,35,309,47,25,32,050,36*7A

$GPGSV,3,3,12,01,14,264,46,16,13,188,38,10,13,159,34,23,07,295,46*70

$GPRMC,203913.000,A,3947.9632,N,08407.6675,W,9.43,106.8,160117,,*24

$GPBT,INFO1,INFO2,INFO3,INFO4,1,0,0,1,0,32,196608,3748288,221980,221980*0E

$GPGGA,203917.000,3947.9603,N,08407.6561,W,2,11,0.9,211.4,M,,,0000,0000*15

$GPGSA,A,3,31,14,22,32,26,03,25,23,10,16,01,,1.6,0.9,1.3*3E

$GPGSV,3,1,12,31,77,003,45,14,67,063,36,22,47,293,47,32,43,096,34*7A

$GPBT,INFO1,INFO2,INFO3,INFO4,1,0,0,1,0,32,196608,3748320,221982,221982*0D

$GPGGA,203919.000,3947.9596,N,08407.6550,W,2,11,0.8,211.4,M,,,0000,0000*17

$GPGSA,A,3,31,14,22,32,26,03,25,23,10,16,01,,1.1,0.8,0.8*32

$GPGSV,3,1,12,31,77,003,45,14,67,063,36,22,47,293,47,32,43,096,35*7B

$GPVTG,114.7,T,,M,0.01,N,0.0,K*52

$GPRMC,203925.000,A,3947.9596,N,08407.6550,W,0.01,114.7,160117,,*2B

$GPGSV,3,1,12,31,77,003,44,14,67,063,38,22,47,293,47,32,43,096,37*76


$GPRMC,203932.000,A,3947.9615,N,08407.6337,W,19.84,53.6,160117,,*24

$GPGSV,3,1,12,31,77,004,43,14,67,063,39,22,47,293,44,32,43,096,39*7A

$GPGSV,3,2,12,26,40,174,46,51,38,213,47,03,35,309,41,25,31,050,33*7D

$GPGSV,3,3,12,01,14,264,43,16,13,188,43,10,13,159,41,23,07,295,41*7C

$GPRMC,203933.000,A,3947.9653,N,08407.6274,W,22.66,50.8,160117,,*28

$GPVTG,50.8,T,,M,22.66,N,42.0,K*6B

$GPBT,INFO1,INFO2,INFO3,INFO4,1,0,0,1,0,32,196608,3748560,221997,221997*0F

$GPGGA,203934.000,3947.9698,N,08407.6206,W,2,11,0.9,209.8,M,,,0000,0000*15


$GPVTG,51.5,T,,M,29.90,N,55.4,K*67

$GPBT,INFO1,INFO2,INFO3,INFO4,1,0,0,1,0,32,196608,3748608,222000,222000*02

$GPGGA,203937.000,3947.9852,N,08407.5955,W,2,11,0.9,209.1,M,,,0000,0000*19


$GPVTG,51.7,T,,M,35.95,N,66.6,K*6F

$GPBT,INFO1,INFO2,INFO3,INFO4,1,0,0,1,0,32,196608,3748672,222004,222004*0F




$GPVTG,52.3,T,,M,38.59,N,71.5,K*60

$GPBT,INFO1,INFO2,INFO3,INFO4,1,0,0,1,0,32,196608,3748720,222007,222007*09

$GPGGA,203944.000,3948.0290,N,08407.5219,W,2,10,1.0,208.2,M,,,0000,0000*17

$GPGSA,A,3,31,14,22,32,26,03,25,10,16,01,,,1.8,1.0,1.6*3C

$GPGSV,3,1,12,31,77,004,42,14,67,063,38,22,47,293,44,32,43,096,42*76

$GPGSV,3,2,12,26,40,174,45,51,38,213,48,03,35,309,40,25,31,050,32*71

$GPGSV,3,3,12,01,14,264,40,16,13,188,40,10,12,159,41,23,07,295,31*7A

$GPRMC,203944.000,A,3948.0290,N,08407.5219,W,38.86,52.4,160117,,*26

$GPVTG,52.4,T,,M,38.86,N,72.0,K*63

$GPBT,INFO1,INFO2,INFO3,INFO4,1,0,0,1,0,32,196608,3748736,222008,222008*0E

$GPGGA,203945.000,3948.0358,N,08407.5106,W,2,11,0.9,208.2,M,,,0000,0000*17

$GPGSA,A,3,31,14,22,32,26,03,25,23,10,16,01,,1.6,0.9,1.3*3E

$GPGSV,3,1,12,31,77,004,42,14,67,063,38,22,47,293,44,32,43,096,42*76

$GPGSV,3,2,12,26,40,174,46,51,38,213,48,03,35,309,40,25,31,050,32*72

$GPGSV,3,3,12,01,14,264,40,16,13,188,40,10,12,159,41,23,07,295,39*72

$GPRMC,203945.000,A,3948.0358,N,08407.5106,W,38.59,51.8,160117,,*22

$GPVTG,51.8,T,,M,38.59,N,71.5,K*68

$GPBT,INFO1,INFO2,INFO3,INFO4,1,0,0,1,0,32,196608,3748752,222009,222009*0C

$GPGGA,203946.000,3948.0426,N,08407.4996,W,2,11,0.9,208.2,M,,,0000,0000*1A

$GPGSA,A,3,31,14,22,32,26,03,25,23,10,16,01,,1.6,0.9,1.3*3E

$GPGSV,3,1,12,31,77,004,42,14,67,063,38,22,47,293,44,32,43,096,42*76

$GPGSV,3,2,12,26,40,174,46,51,38,213,48,03,35,309,40,25,31,050,32*72

$GPGSV,3,3,12,01,14,264,41,16,13,188,41,10,12,159,41,23,07,295,39*72

$GPRMC,203946.000,A,3948.0426,N,08407.4996,W,38.35,51.6,160117,,*2B

$GPVTG,51.6,T,,M,38.35,N,71.0,K*69

$GPBT,INFO1,INFO2,INFO3,INFO4,1,0,0,1,0,32,196608,3748768,222010,222010*05

$GPGGA,203947.000,3948.0492,N,08407.4885,W,2,11,0.9,208.3,M,,,0000,0000*16

$GPGSA,A,3,31,14,22,32,26,03,25,23,10,16,01,,1.6,0.9,1.3*3E

$GPGSV,3,1,12,31,77,004,42,14,67,063,38,22,47,293,44,32,43,096,42*76

$GPGSV,3,2,12,26,40,174,46,51,38,213,48,03,35,309,40,25,31,050,32*72

$GPGSV,3,3,12,01,14,264,41,16,13,188,42,10,12,159,41,23,07,295,32*7A

$GPRMC,203947.000,A,3948.0492,N,08407.4885,W,38.32,52.3,160117,,*27

$GPVTG,52.3,T,,M,38.32,N,71.0,K*68

$GPBT,INFO1,INFO2,INFO3,INFO4,1,0,0,1,0,32,196608,3748784,222011,222011*07

$GPGGA,203948.000,3948.0558,N,08407.4776,W,2,11,0.9,208.3,M,,,0000,0000*1D

$GPGSA,A,3,31,14,22,32,26,03,25,23,10,16,01,,1.6,0.9,1.3*3E

$GPGSV,3,1,12,31,77,004,42,14,66,064,38,22,47,293,44,32,43,096,41*73

$GPGSV,3,2,12,26,40,174,45,51,38,213,48,03,35,309,40,25,31,050,31*72

$GPGSV,3,3,12,01,14,264,41,16,13,188,41,10,12,159,40,23,07,295,39*73

$GPBT,INFO1,INFO2,INFO3,INFO4,1,0,0,1,0,32,196608,3748816,222013,222013*03

$GPGGA,203950.000,3948.0691,N,08407.4552,W,2,11,0.9,208.4,M,,,0000,0000*11

$GPGSA,A,3,31,14,22,32,26,03,25,23,10,16,01,,1.6,0.9,1.3*3E

$GPGSV,3,1,12,31,77,004,42,14,66,064,37,22,47,293,44,32,43,096,40*7D

$GPGSV,3,2,12,26,40,174,43,51,38,213,46,03,35,309,40,25,31,050,32*79

$GPGSV,3,3,12,01,14,264,42,16,13,188,33,10,12,159,32,23,07,295,38*71

$GPRMC,203951.000,A,3948.0758,N,08407.4441,W,38.96,51.8,160117,,*27

$GPVTG,51.8,T,,M,38.96,N,72.2,K*6F

$GPBT,INFO1,INFO2,INFO3,INFO4,1,0,0,1,0,32,196608,3748848,222015,222015*08


$GPGSA,A,3,31,14,22,32,26,03,25,23,10,16,01,,1.6,0.9,1.3*3E

$GPGSV,3,1,12,31,77,004,42,14,66,064,37,22,47,293,45,32,43,096,39*72

$GPGSV,3,2,12,26,40,174,43,51,38,213,45,03,35,309,40,25,31,050,32*7A

$GPGSV,3,3,12,01,14,264,39,16,13,188,34,10,12,159,32,23,07,295,35*77

$GPRMC,203953.000,A,3948.0892,N,08407.4219,W,38.38,52.0,160117,,*28

$GPVTG,52.0,T,,M,38.38,N,71.1,K*60

$GPBT,INFO1,INFO2,INFO3,INFO4,1,0,0,1,0,32,196608,3748880,222017,222017*0C

$GPGGA,203954.000,3948.0958,N,08407.4108,W,2,11,0.9,208.7,M,,,0000,0000*17

$GPGSA,A,3,31,14,22,32,26,03,25,23,10,16,01,,1.6,0.9,1.3*3E

$GPGSV,3,1,12,31,77,004,42,14,66,064,38,22,47,293,45,32,43,096,39*7D

$GPGSV,3,2,12,26,40,174,44,51,38,213,45,03,35,309,40,25,31,050,32*7D

$GPGSV,3,3,12,01,14,264,40,16,13,188,35,10,12,159,32,23,07,295,33*7E

$GPRMC,203954.000,A,3948.0958,N,08407.4108,W,38.54,52.2,160117,,*23

$GPVTG,52.2,T,,M,38.54,N,71.4,K*6D

$GPBT,INFO1,INFO2,INFO3,INFO4,1,0,0,1,0,32,196608,3748896,222018,222018*0B

$GPGGA,203955.000,3948.1024,N,08407.3998,W,2,11,0.9,208.7,M,,,0000,0000*13

$GPGSA,A,3,31,14,22,32,26,03,25,23,10,16,01,,1.6,0.9,1.3*3E

$GPGSV,3,1,12,31,77,004,42,14,66,064,38,22,47,293,45,32,43,096,39*7D


$GPGSA,A,3,31,14,22,32,26,03,25,10,16,01,,,1.8,1.0,1.6*3C

$GPGSV,3,1,12,31,77,004,42,14,66,064,38,22,47,293,45,32,43,096,40*73



$GPGSV,3,3,12,01,14,264,42,16,13,188,41,10,12,159,35,23,07,295,31*7A

$GPRMC,203959.000,A,3948.1293,N,08407.3549,W,38.72,52.3,160117,,*20



$GPGSV,3,1,12,31,77,004,42,14,66,064,38,22,47,293,45,32,43,096,41*72

$GPGSV,3,2,12,26,40,174,46,51,38,213,48,03,35,309,40,25,31,050,33*73

$GPGSV,3,3,12,01,14,264,42,16,13,188,42,10,12,159,43,23,07,295,31*78

$GPRMC,204000.000,A,3948.1357,N,08407.3437,W,38.29,52.3,160117,,*2D

$GPVTG,52.3,T,,M,38.29,N,70.9,K*6A

$GPBT,INFO1,INFO2,INFO3,INFO4,1,0,0,1,0,32,196608,3748992,222024,222024*0E

$GPGSA,A,3,31,14,22,32,26,03,25,23,10,16,01,,1.6,0.9,1.3*3E

$GPGSV,3,1,12,31,77,004,42,14,66,064,38,22,47,293,44,32,43,096,41*73


$GPGSV,3,1,12,31,77,004,42,14,66,064,38,22,47,293,44,32,43,096,41*73

$GPGSV,3,2,12,26,40,174,46,51,38,213,48,03,35,309,40,25,31,050,32*72

$GPGSV,3,3,12,01,14,264,42,16,13,188,43,10,12,159,42,23,07,295,30*79

$GPRMC,204004.000,A,3948.1618,N,08407.2997,W,38.62,52.5,160117,,*28

$GPVTG,52.5,T,,M,38.62,N,71.5,K*6E

$GPBT,INFO1,INFO2,INFO3,INFO4,1,0,0,1,0,32,196608,3749056,222028,222028*0E

$GPGGA,204005.000,3948.1683,N,08407.2886,W,2,10,1.0,209.9,M,,,0000,0000*1A

$GPGSA,A,3,31,14,22,32,26,03,25,10,16,01,,,1.8,1.0,1.6*3C

$GPGSV,3,1,12,31,76,004,42,14,66,064,38,22,47,293,45,32,43,096,41*73

$GPGSV,3,2,12,26,40,174,46,51,38,213,48,03,35,309,40,25,31,050,32*72

$GPGSV,3,3,12,01,14,264,41,16,13,188,43,10,12,159,42,23,07,295,28*73

$GPRMC,204005.000,A,3948.1683,N,08407.2886,W,38.84,52.5,160117,,*22

$GPVTG,52.5,T,,M,38.84,N,71.9,K*6A

$GPBT,INFO1,INFO2,INFO3,INFO4,1,0,0,1,0,32,196608,3749072,222029,222029*08

$GPVTG,52.9,T,,M,38.04,N,70.4,K*62

$GPBT,INFO1,INFO2,INFO3,INFO4,1,0,0,1,0,32,196608,3749120,222032,222032*0E

$GPGGA,204009.000,3948.1943,N,08407.2440,W,2,10,1.0,210.8,M,,,0000,0000*1A

$GPGSA,A,3,31,14,22,32,26,03,25,10,16,01,,,1.8,1.0,1.6*3C

$GPGSV,3,1,12,31,76,004,42,14,66,064,38,22,47,293,44,32,43,096,42*71


$GPVTG,53.3,T,,M,35.68,N,66.1,K*6C

$GPBT,INFO1,INFO2,INFO3,INFO4,1,0,0,1,0,32,196608,3749168,222035,222035*02

$GPGGA,204012.000,3948.2124,N,08407.2127,W,2,10,1.0,211.4,M,,,0000,0000*13

$GPGSV,3,3,12,01,14,264,42,16,13,188,44,10,12,159,41,23,07,295,19*76

$GPRMC,204014.000,A,3948.2223,N,08407.1924,W,32.71,61.2,160117,,*22

$GPGSV,3,1,12,31,76,004,42,14,66,064,39,22,47,293,44,32,43,096,40*72

$GPGSV,3,2,12,26,40,174,44,51,38,213,48,03,35,309,41,25,31,050,33*70

$GPGSV,3,3,12,01,14,264,42,16,13,188,44,10,12,159,40,23,07,295,20*7D


$GPGSV,3,1,12,31,76,004,42,14,66,064,39,22,47,293,44,32,43,096,40*72

$GPGSV,3,2,12,26,40,174,44,51,38,213,48,03,35,309,42,25,31,050,33*73

$GPGSA,A,3,31,14,22,32,26,03,25,10,16,01,29,,1.4,0.8,1.2*36

$GPGSV,3,1,12,31,76,004,43,14,66,064,40,22,47,293,46,32,43,096,40*7F

$GPGSV,3,2,12,26,40,174,44,51,38,213,48,03,35,309,41,25,31,050,31*72

$GPGSV,3,3,12,01,14,264,41,16,13,188,41,10,12,159,41,23,07,295,23*79

$GPRMC,204018.000,A,3948.2343,N,08407.1529,W,26.31,74.9,160117,,*26

$GPVTG,74.9,T,,M,26.31,N,48.7,K*67

$GPBT,INFO1,INFO2,INFO3,INFO4,1,0,0,1,0,32,196608,3749280,222042,222042*07

$GPGGA,204019.000,3948.2358,N,08407.1440,W,2,11,0.8,212.6,M,,,0000,0000*1F

$GPGSA,A,3,31,14,22,32,26,03,25,10,16,01,29,,1.4,0.8,1.2*36
$GPVTG,82.4,T,,M,21.48,N,39.8,K*63

$GPBT,INFO1,INFO2,INFO3,INFO4,1,0,0,1,0,32,196608,3749312,222044,222044*0D

$GPGGA,204021.000,3948.2370,N,08407.1287,W,2,11,0.8,212.7,M,,,0000,0000*12

$GPRMC,204021.000,A,3948.2370,N,08407.1287,W,18.19,86.2,160117,,*2E

$GPVTG,86.2,T,,M,18.19,N,33.7,K*6A

$GPBT,INFO1,INFO2,INFO3,INFO4,1,0,0,1,0,32,196608,3749328,222045,222045*04

$GPGGA,204022.000,3948.2370,N,08407.1229,W,2,11,0.8,212.7,M,,,0000,0000*15




$GPBT,INFO1,INFO2,INFO3,INFO4,1,0,0,1,0,32,196608,3749360,222047,222047*08


$GPGSV,3,3,12,01,14,264,43,16,13,188,42,10,12,159,32,23,07,295,26*79

$GPRMC,204025.000,A,3948.2366,N,08407.1124,W,6.08,114.7,160117,,*27

$GPVTG,114.7,T,,M,6.08,N,11.3,K*6E

$GPBT,INFO1,INFO2,INFO3,INFO4,1,0,0,1,0,32,196608,3749392,222049,222049*05

$GPGGA,204026.000,3948.2362,N,08407.1104,W,2,11,0.8,212.4,M,,,0000,0000*1D





$GPGSV,3,2,12,26,40,174,42,51,38,213,48,03,35,309,43,25,31,050,33*74

$GPGSV,3,3,12,01,14,264,44,16,13,188,39,10,12,159,34,23,07,295,28*7A

$GPRMC,204028.000,A,3948.2359,N,08407.1072,W,3.42,89.2,160117,,*1F

$GPVTG,89.2,T,,M,3.42,N,6.3,K*63

$GPBT,INFO1,INFO2,INFO3,INFO4,1,0,0,1,0,32,196608,3749440,222052,222052*0D

$GPGGA,204029.000,3948.2361,N,08407.1048,W,2,12,0.8,212.4,M,,,0000,0000*1B

$GPVTG,80.4,T,,M,8.67,N,16.1,K*53

$GPBT,INFO1,INFO2,INFO3,INFO4,1,0,0,1,0,32,196608,3749456,222053,222053*0A

$GPGGA,204030.000,3948.2371,N,08407.1018,W,2,11,0.8,212.4,M,,,0000,0000*14


$GPVTG,19.4,T,,M,15.80,N,29.3,K*68



$GPGSV,3,1,12,31,76,005,42,14,66,064,38,22,47,292,41,32,43,096,40*76

$GPGSV,3,2,12,26,40,174,48,51,38,213,48,03,35,309,35,25,31,050,33*7F

$GPGSV,3,3,12,01,14,264,40,16,13,188,42,10,12,159,37,23,07,296,*78

$GPRMC,204039.000,A,3948.2898,N,08407.0777,W,31.46,26.6,160117,,*2E

$GPVTG,26.6,T,,M,31.46,N,58.3,K*6C

$GPBT,INFO1,INFO2,INFO3,INFO4,1,0,0,1,0,32,196608,3749616,222063,222063*0C

$GPGGA,204040.000,3948.2977,N,08407.0724,W,2,10,1.0,212.5,M,,,0000,0000*1F


$GPGGA,204042.000,3948.3127,N,08407.0600,W,2,11,1.0,212.6,M,,,0000,0000*14

$GPGSA,A,3,31,14,22,32,26,03,25,23,10,16,01,,1.8,1.0,1.6*3D


$GPGSA,A,3,31,14,22,32,26,03,25,23,10,16,01,,1.6,0.9,1.3*3E

$GPGSV,3,1,12,31,76,005,43,14,66,064,38,22,47,292,42,32,43,096,37*74

$GPVTG,45.2,T,,M,33.35,N,61.8,K*6A

$GPBT,INFO1,INFO2,INFO3,INFO4,1,0,0,1,0,32,196608,3749712,222069,222069*09

$GPGGA,204046.000,3948.3403,N,08407.0283,W,2,11,0.9,213.3,M,,,0000,0000*10

$GPGSA,A,3,31,14,22,32,26,03,25,23,10,16,01,,1.6,0.9,1.3*3E







$GPGSV,3,3,12,01,14,264,43,16,13,188,45,10,12,159,44,23,07,296,25*7F


$GPVTG,47.5,T,,M,32.37,N,59.9,K*66

$GPBT,INFO1,INFO2,INFO3,INFO4,1,0,0,1,0,32,196608,3749776,222073,222073*0B


$GPGSV,3,2,12,26,40,174,46,51,38,213,48,03,35,308,39,25,31,050,35*7A
$GPGSV,3,2,12,26,40,174,45,51,38,213,48,03,35,308,40,25,31,050,34*76

$GPGSV,3,3,12,01,14,264,41,16,13,188,44,10,12,159,43,23,07,296,28*76

$GPVTG,55.0,T,,M,30.73,N,56.9,K*6D

$GPVTG,60.3,T,,M,30.76,N,57.0,K*65

$GPBT,INFO1,INFO2,INFO3,INFO4,1,0,0,1,0,32,196608,3749824,222076,222076*03



$GPRMC,204056.000,A,3948.3895,N,08406.9309,W,34.67,67.2,160117,,*29




$GPGSV,3,3,12,16,14,188,42,01,14,264,42,10,12,159,35,23,07,296,29*74


$GPGSA,A,3,31,14,22,32,26,03,25,23,10,16,01,,1.6,0.9,1.3*3E
$GPGSV,3,3,12,16,14,188,43,01,14,264,42,10,12,159,36,23,07,296,36*78


$GPGSA,A,3,31,14,22,32,26,03,25,23,10,16,01,,1.6,0.9,1.3*3E

$GPGSV,3,1,12,31,76,005,43,14,66,065,39,22,47,292,44,32,43,096,39*7C

$GPGSV,3,2,12,26,40,174,45,51,38,213,48,03,35,308,42,25,31,050,32*72

$GPGSV,3,3,12,16,14,188,44,01,14,264,41,10,12,159,43,23,07,296,36*7E

$GPRMC,204059.000,A,3948.4013,N,08406.8965,W,33.61,61.8,160117,,*2B

$GPVTG,61.8,T,,M,33.61,N,62.2,K*6E

$GPBT,INFO1,INFO2,INFO3,INFO4,1,0,0,1,0,32,196608,3749936,222083,222083*01

$GPGGA,204100.000,3948.4058,N,08406.8860,W,2,11,0.9,219.0,M,,,0000,0000*19

$GPGSA,A,3,31,14,22,32,26,03,25,23,10,16,01,,1.6,0.9,1.3*3E

$GPGSV,3,1,12,31,76,005,43,14,66,065,39,22,47,292,44,32,43,096,39*7C

$GPGSV,3,2,12,26,40,174,45,51,38,213,48,03,35,308,41,25,31,050,32*71

$GPGSV,3,3,12,16,14,188,44,01,14,264,41,10,12,159,43,23,07,296,34*7C

$GPRMC,204100.000,A,3948.4058,N,08406.8860,W,33.30,59.9,160117,,*23

$GPVTG,59.9,T,,M,33.30,N,61.7,K*66

$GPBT,INFO1,INFO2,INFO3,INFO4,1,0,0,1,0,32,196608,3749952,222084,222084*03

$GPGGA,204101.000,3948.4105,N,08406.8757,W,2,11,0.9,219.5,M,,,0000,0000*1F

$GPGSA,A,3,31,14,22,32,26,03,25,23,10,16,01,,1.6,0.9,1.3*3E

$GPGSV,3,1,12,31,76,005,42,14,66,065,39,22,47,292,44,32,43,096,39*7D

$GPGSV,3,2,12,26,40,174,45,51,38,213,48,03,35,308,40,25,31,050,32*70

$GPGSV,3,3,12,16,14,188,43,01,14,264,41,10,12,159,43,23,07,296,34*7B

$GPRMC,204101.000,A,3948.4105,N,08406.8757,W,33.34,58.2,160117,,*2E

$GPVTG,58.2,T,,M,33.34,N,61.7,K*68

$GPBT,INFO1,INFO2,INFO3,INFO4,1,0,0,1,0,32,196608,3749968,222085,222085*0A

$GPVTG,59.5,T,,M,33.63,N,62.3,K*6B

$GPBT,INFO1,INFO2,INFO3,INFO4,1,0,0,1,0,32,196608,3749984,222086,222086*08

$GPGGA,204103.000,3948.4200,N,08406.8547,W,2,10,1.0,220.3,M,,,0000,0000*1D

$GPGSA,A,3,31,14,22,32,26,03,25,10,16,01,,,1.8,1.0,1.6*3C

$GPGSV,3,1,12,31,76,005,42,14,66,065,39,22,47,292,44,32,43,096,38*7C
$GPGSA,A,3,31,14,22,32,26,03,25,23,10,16,01,,1.6,0.9,1.3*3E

$GPGSV,3,1,12,31,76,005,42,14,66,065,39,22,47,292,44,32,43,096,38*7C

$GPGSV,3,2,12,26,40,174,44,51,38,213,49,03,35,308,38,25,31,049,32*77

$GPGSA,A,3,31,14,22,32,26,03,25,23,10,16,01,,1.6,0.9,1.3*3E


$GPGSA,A,3,31,14,22,32,26,03,25,23,10,16,01,29,1.3,0.8,1.0*32


$GPGSA,A,3,31,14,22,32,26,03,25,10,16,01,29,,1.4,0.8,1.2*36

$GPGSV,3,3,12,16,14,188,37,01,14,264,39,10,12,159,23,23,07,296,29*7D

$GPRMC,204109.000,A,3948.4507,N,08406.7918,W,31.71,58.3,160117,,*28

$GPVTG,58.3,T,,M,31.71,N,58.7,K*60

$GPBT,INFO1,INFO2,INFO3,INFO4,1,0,0,1,0,32,196608,3750096,222093,222093*0A

$GPGGA,204110.000,3948.4560,N,08406.7820,W,2,11,0.8,222.6,M,,,0000,0000*12
$GPGGA,204111.000,3948.4617,N,08406.7721,W,2,12,0.8,222.9,M,,,0000,0000*12


$GPGSV,3,2,12,26,40,174,44,51,38,213,48,03,35,308,40,25,31,049,34*7F

$GPRMC,204112.000,A,3948.4675,N,08406.7623,W,33.77,52.5,160117,,*2B

$GPGSV,3,2,12,26,40,174,44,51,38,213,48,03,36,308,40,25,31,049,34*7C

$GPGSV,3,3,12,16,14,188,44,01,14,264,41,10,12,159,41,23,07,296,27*7C





$GPGSV,3,1,12,31,76,006,42,14,66,065,39,22,47,292,44,32,43,097,42*73

$GPGSV,3,2,12,26,40,174,44,51,38,213,48,03,36,308,40,25,31,049,34*7C

$GPGSV,3,3,12,16,14,188,46,01,14,264,42,10,12,159,41,23,07,296,34*7F

$GPRMC,204116.000,A,3948.4902,N,08406.7236,W,34.51,53.5,160117,,*22

$GPVTG,53.5,T,,M,34.51,N,63.9,K*6C

$GPBT,INFO1,INFO2,INFO3,INFO4,1,0,0,1,0,32,196608,3750208,222100,222100*0F

$GPGGA,204117.000,3948.4960,N,08406.7135,W,2,10,1.0,224.5,M,,,0000,0000*19

$GPGSA,A,3,31,14,22,32,26,03,25,10,16,01,,,1.8,1.0,1.6*3C

$GPRMC,204117.000,A,3948.4960,N,08406.7135,W,35.20,53.8,160117,,*2D

$GPVTG,53.8,T,,M,35.20,N,65.2,K*6B

$GPBT,INFO1,INFO2,INFO3,INFO4,1,0,0,1,0,32,196608,3750224,222101,222101*01

$GPGGA,204118.000,3948.5018,N,08406.7032,W,2,11,0.9,224.7,M,,,0000,0000*1C

$GPGSA,A,3,31,14,22,32,26,03,25,23,10,16,01,,1.6,0.9,1.3*3E

$GPGSV,3,1,12,31,76,006,42,14,66,065,39,22,47,292,44,32,43,097,42*73
$GPRMC,204119.000,A,3948.5078,N,08406.6927,W,36.37,53.5,160117,,*20


$GPBT,INFO1,INFO2,INFO3,INFO4,1,0,0,1,0,32,196608,3750288,222105,222105*07

$GPGGA,204122.000,3948.5265,N,08406.6605,W,2,11,0.9,225.7,M,,,0000,0000*1F
$GPGSA,A,3,31,14,22,32,26,03,25,23,10,16,01,,1.6,0.9,1.3*3E

$GPGSV,3,1,12,31,76,006,42,14,66,065,39,22,47,292,44,32,43,097,42*73

$GPGSV,3,2,12,26,40,174,44,51,38,213,48,03,36,308,40,25,31,049,33*7B

$GPGSV,3,3,12,16,14,188,44,01,14,264,42,10,12,159,44,23,07,296,32*7E

$GPRMC,204122.000,A,3948.5265,N,08406.6605,W,36.64,52.8,160117,,*23

$GPVTG,52.8,T,,M,36.64,N,67.9,K*60

$GPBT,INFO1,INFO2,INFO3,INFO4,1,0,0,1,0,32,196608,3750304,222106,222106*02

$GPGGA,204123.000,3948.5327,N,08406.6498,W,2,11,0.8,225.9,M,,,0000,0000*10

$GPGSA,A,3,31,14,22,32,26,03,25,10,16,01,29,,1.4,0.8,1.2*36

$GPGSV,3,1,12,31,76,006,42,14,66,065,39,22,47,292,44,32,43,097,42*73

$GPGSV,3,2,12,26,40,174,45,51,38,213,48,03,36,308,40,25,31,049,33*7A

$GPGSV,3,3,12,16,14,188,44,01,14,264,42,10,12,159,44,23,07,296,30*7C

$GPRMC,204123.000,A,3948.5327,N,08406.6498,W,36.36,52.4,160117,,*28

$GPVTG,52.4,T,,M,36.36,N,67.3,K*61

$GPBT,INFO1,INFO2,INFO3,INFO4,1,0,0,1,0,32,196608,3750320,222107,222107*04

$GPGGA,204124.000,3948.5389,N,08406.6394,W,2,12,0.8,226.2,M,,,0000,0000*13

$GPGSA,A,3,31,14,22,32,26,03,25,23,10,16,01,29,1.3,0.8,1.0*32

$GPGSV,3,1,12,31,76,006,42,14,66,065,39,22,47,292,44,32,43,097,42*73

$GPGSV,3,2,12,26,40,174,45,51,38,213,48,03,36,308,40,25,31,049,33*7A

$GPGSV,3,3,12,16,14,188,44,01,14,264,42,10,12,159,43,23,07,296,30*7B

$GPRMC,204124.000,A,3948.5389,N,08406.6394,W,36.36,52.4,160117,,*20

$GPVTG,52.4,T,,M,36.36,N,67.3,K*61

$GPBT,INFO1,INFO2,INFO3,INFO4,1,0,0,1,0,32,196608,3750336,222108,222108*03

$GPGGA,204125.000,3948.5452,N,08406.6291,W,2,11,0.9,226.5,M,,,0000,0000*12

$GPGSA,A,3,31,14,22,32,26,03,25,23,10,16,01,,1.6,0.9,1.3*3E

$GPGSV,3,1,12,31,76,006,42,14,66,065,39,22,47,292,44,32,43,097,42*73

$GPGSV,3,2,12,26,40,174,46,51,38,213,48,03,36,308,40,25,31,049,33*79

$GPGSV,3,3,12,16,14,188,44,01,14,264,40,10,12,159,43,23,07,296,30*79

$GPRMC,204125.000,A,3948.5452,N,08406.6291,W,36.39,52.2,160117,,*2D

$GPVTG,52.2,T,,M,36.39,N,67.4,K*6F

$GPBT,INFO1,INFO2,INFO3,INFO4,1,0,0,1,0,32,196608,3750352,222109,222109*01

$GPGGA,204126.000,3948.5515,N,08406.6186,W,2,12,0.8,226.7,M,,,0000,0000*16

$GPGSA,A,3,31,14,22,32,26,03,25,23,10,16,01,29,1.3,0.8,1.0*32

$GPGSV,3,1,12,31,76,006,42,14,66,065,39,22,47,292,44,32,43,097,42*73

$GPGSV,3,2,12,26,40,174,46,51,38,213,48,03,36,308,40,25,31,049,33*79

$GPGSV,3,3,12,16,14,188,44,01,14,264,40,10,12,159,43,23,07,296,32*7B

$GPRMC,204126.000,A,3948.5515,N,08406.6186,W,36.65,52.6,160117,,*24

$GPVTG,52.6,T,,M,36.65,N,67.9,K*6F

$GPBT,INFO1,INFO2,INFO3,INFO4,1,0,0,1,0,32,196608,3750368,222110,222110*08

$GPGGA,204127.000,3948.5576,N,08406.6082,W,2,12,0.8,226.9,M,,,0000,0000*19

$GPGSA,A,3,31,14,22,32,26,03,25,23,10,16,01,29,1.3,0.8,1.0*32

$GPGSV,3,1,12,31,76,006,42,14,66,065,39,22,47,292,44,32,43,097,42*73

$GPGSV,3,2,12,26,40,174,46,51,38,213,48,03,36,308,40,25,31,049,33*79

$GPGSV,3,3,12,16,14,188,44,01,14,264,40,10,12,159,42,23,07,296,32*7A

$GPRMC,204127.000,A,3948.5576,N,08406.6082,W,36.64,52.8,160117,,*2A

$GPVTG,52.8,T,,M,36.64,N,67.9,K*60

$GPBT,INFO1,INFO2,INFO3,INFO4,1,0,0,1,0,32,196608,3750384,222111,222111*0A

$GPGGA,204128.000,3948.5638,N,08406.5978,W,2,11,0.9,227.1,M,,,0000,0000*1B

$GPGSA,A,3,31,14,22,32,26,03,25,23,10,16,01,,1.6,0.9,1.3*3E

$GPGSV,3,1,12,31,76,006,42,14,66,065,39,22,47,292,44,32,43,097,42*73

$GPGSV,3,2,12,26,40,174,46,51,38,213,48,03,36,308,39,25,31,049,33*77

$GPGSV,3,3,12,16,14,188,44,01,14,264,41,10,12,159,41,23,07,296,32*78

$GPRMC,204128.000,A,3948.5638,N,08406.5978,W,36.57,53.0,160117,,*2A

$GPVTG,53.0,T,,M,36.57,N,67.7,K*67

$GPBT,INFO1,INFO2,INFO3,INFO4,1,0,0,1,0,32,196608,3750400,222112,222112*01

$GPGGA,204129.000,3948.5699,N,08406.5876,W,2,12,0.8,227.3,M,,,0000,0000*1E

$GPGSV,3,2,12,26,40,174,46,51,38,213,48,03,36,308,39,25,31,049,33*77

$GPVTG,52.4,T,,M,38.38,N,71.1,K*64

$GPBT,INFO1,INFO2,INFO3,INFO4,1,0,0,1,0,32,196608,3750480,222117,222117*09

$GPGGA,204134.000,3948.6025,N,08406.5335,W,2,11,0.9,228.0,M,,,0000,0000*12
$GPRMC,204134.000,A,3948.6025,N,08406.5335,W,38.70,52.8,160117,,*2F

$GPGSV,3,1,12,31,76,006,42,14,66,065,39,22,47,292,44,32,43,097,41*70
$GPRMC,204135.000,A,3948.6090,N,08406.5224,W,38.74,51.9,160117,,*27

$GPVTG,51.9,T,,M,38.74,N,71.7,K*64

$GPBT,INFO1,INFO2,INFO3,INFO4,1,0,0,1,0,32,196608,3750512,222119,222119*03

$GPGSV,3,2,12,26,41,174,45,51,38,213,48,03,36,308,39,25,31,049,33*75

$GPGSV,3,3,12,16,14,188,32,01,14,264,40,10,12,159,30,23,08,296,37*74

$GPRMC,204136.000,A,3948.6157,N,08406.5115,W,38.10,51.9,160117,,*2D

$GPVTG,51.9,T,,M,38.10,N,70.6,K*66

$GPBT,INFO1,INFO2,INFO3,INFO4,1,0,0,1,0,32,196608,3750528,222120,222120*0A

$GPGGA,204137.000,3948.6222,N,08406.5007,W,2,10,0.9,228.5,M,,,0000,0000*12

$GPGSA,A,3,31,14,22,32,26,03,25,10,16,01,,,1.8,0.9,1.5*37

$GPGSV,3,1,12,31,76,006,42,14,66,065,39,22,47,292,44,32,43,097,40*71

$GPGSV,3,2,12,26,41,174,45,51,38,213,48,03,36,308,39,25,31,049,33*75

$GPGSV,3,3,12,16,14,188,31,01,14,264,39,10,12,159,28,23,08,296,27*71

$GPRMC,204137.000,A,3948.6222,N,08406.5007,W,37.32,52.3,160117,,*29

$GPVTG,52.3,T,,M,37.32,N,69.1,K*6F

$GPBT,INFO1,INFO2,INFO3,INFO4,1,0,0,1,0,32,196608,3750544,222121,222121*00

$GPGGA,204138.000,3948.6285,N,08406.4901,W,2,10,0.9,228.6,M,,,0000,0000*1D

$GPGSA,A,3,31,14,22,32,26,03,25,10,16,01,,,1.8,0.9,1.5*37

$GPGSV,3,1,12,31,76,007,42,14,66,065,39,22,47,292,45,32,43,097,41*70


$GPVTG,56.5,T,,M,36.28,N,67.2,K*6A

$GPBT,INFO1,INFO2,INFO3,INFO4,1,0,0,1,0,32,196608,3750640,222127,222127*07

$GPGGA,204144.000,3948.6639,N,08406.4256,W,2,10,0.9,230.1,M,,,0000,0000*12

$GPBT,INFO1,INFO2,INFO3,INFO4,1,0,0,1,0,32,196608,3750688,222130,222130*03
